[
    {
        "name": "Squamish, BC",
        "latitude": 49.736901,
        "longitude": -123.134573
    },
    {
        "name": "Winnipeg, MB",
        "latitude": 49.881297,
        "longitude": -97.198141
    },
    {
        "name": "Hope, BC",
        "latitude": 49.37829,
        "longitude": -121.442822
    },
    {
        "name": "Canmore, AB",
        "latitude": 51.100208,
        "longitude": -115.359179
    },
    {
        "name": "Revelstoke, BC",
        "latitude": 51.009594,
        "longitude": -118.218857
    },
    {
        "name": "Windsor, ON",
        "latitude": 42.25969,
        "longitude": -82.96524
    },
    {
        "name": "Comber, ON",
        "latitude": 42.2387885,
        "longitude": -82.5508729
    },
    {
        "name": "Golden, BC",
        "latitude": 51.31325,
        "longitude": -116.974152
    },
    {
        "name": "Lincoln, NB",
        "latitude": 45.851688,
        "longitude": -66.560635
    },
    {
        "name": "Regina, SK",
        "latitude": 50.442508,
        "longitude": -104.531998
    },
    {
        "name": "Minden, ON",
        "latitude": 44.931031,
        "longitude": -78.715096
    },
    {
        "name": "Niagara Falls, ON",
        "latitude": 43.116772,
        "longitude": -79.124184
    },
    {
        "name": "Kelowna, BC",
        "latitude": 49.885795,
        "longitude": -119.429273
    },
    {
        "name": "Abbotsford, BC",
        "latitude": 49.0580075,
        "longitude": -122.378125
    },
    {
        "name": "Magog, QC",
        "latitude": 45.281273,
        "longitude": -72.185744
    },
    {
        "name": "Grimsby, ON",
        "latitude": 43.209814,
        "longitude": -79.601404
    },
    {
        "name": "Red Deer, AB",
        "latitude": 52.251899,
        "longitude": -113.814659
    },
    {
        "name": "Parry Sound, ON",
        "latitude": 45.345576,
        "longitude": -80.005751
    },
    {
        "name": "Vancouver - Kaslo St, BC",
        "latitude": 49.260098,
        "longitude": -123.046793
    },
    {
        "name": "Merritt, BC",
        "latitude": 50.124377,
        "longitude": -120.751136
    },
    {
        "name": "Montreal - Rue Viger, QC",
        "latitude": 45.507767,
        "longitude": -73.558811
    },
    {
        "name": "Nanaimo, BC",
        "latitude": 49.237883,
        "longitude": -124.054722
    },
    {
        "name": "Fort MacLeod, AB",
        "latitude": 49.724991,
        "longitude": -113.397336
    },
    {
        "name": "North York, ON",
        "latitude": 43.776092,
        "longitude": -79.344287
    },
    {
        "name": "Levis, QC",
        "latitude": 46.73032,
        "longitude": -71.26821
    },
    {
        "name": "Edmonton, AB",
        "latitude": 53.486136,
        "longitude": -113.515746
    },
    {
        "name": "Brossard, QC",
        "latitude": 45.442033,
        "longitude": -73.440754
    },
    {
        "name": "Laval, QC",
        "latitude": 45.57017,
        "longitude": -73.747375
    },
    {
        "name": "Mascouche, QC",
        "latitude": 45.723166,
        "longitude": -73.618588
    },
    {
        "name": "Baie-Saint-Paul, QC",
        "latitude": 47.435843,
        "longitude": -70.506254
    },
    {
        "name": "Concord, ON",
        "latitude": 43.827,
        "longitude": -79.539
    },
    {
        "name": "Etobicoke, ON",
        "latitude": 43.6142141,
        "longitude": -79.554197
    },
    {
        "name": "Quebec City - Boulevard des Gradins, QC",
        "latitude": 46.840259,
        "longitude": -71.276797
    },
    {
        "name": "Casselman, ON",
        "latitude": 45.304556,
        "longitude": -75.081806
    },
    {
        "name": "Hamilton, ON",
        "latitude": 43.21709,
        "longitude": -79.863234
    },
    {
        "name": "Saint Leonard, NB",
        "latitude": 47.168758,
        "longitude": -67.918038
    },
    {
        "name": "Tsawwassen, BC",
        "latitude": 49.038196,
        "longitude": -123.082532
    },
    {
        "name": "Mississauga, ON",
        "latitude": 43.598116,
        "longitude": -79.786045
    },
    {
        "name": "Woodstock, NB",
        "latitude": 46.122972,
        "longitude": -67.604998
    },
    {
        "name": "Mont-Tremblant, QC",
        "latitude": 46.11652,
        "longitude": -74.573813
    },
    {
        "name": "Barrie - Bayfield St, ON",
        "latitude": 44.410662,
        "longitude": -79.709549
    },
    {
        "name": "Terrace Bay, ON",
        "latitude": 48.783012,
        "longitude": -87.099954
    },
    {
        "name": "Nipigon, ON",
        "latitude": 49.017854,
        "longitude": -88.307631
    },
    {
        "name": "Sudbury, ON",
        "latitude": 46.440602,
        "longitude": -81.00485
    },
    {
        "name": "Ignace, ON",
        "latitude": 49.41631,
        "longitude": -91.659937
    },
    {
        "name": "Moose Jaw, SK",
        "latitude": 50.405314,
        "longitude": -105.533499
    },
    {
        "name": "Rocky View, AB",
        "latitude": 51.20412,
        "longitude": -113.989686
    },
    {
        "name": "Cambridge, ON",
        "latitude": 43.408904,
        "longitude": -80.325432
    },
    {
        "name": "Bassano, AB",
        "latitude": 50.791436,
        "longitude": -112.450859
    },
    {
        "name": "Blind River, ON",
        "latitude": 46.185186,
        "longitude": -82.927111
    },
    {
        "name": "Osoyoos, BC",
        "latitude": 49.03169,
        "longitude": -119.466928
    },
    {
        "name": "Deep River, ON",
        "latitude": 46.099683,
        "longitude": -77.499963
    },
    {
        "name": "Portage la Prairie, MB",
        "latitude": 49.971959,
        "longitude": -98.318732
    },
    {
        "name": "Whistler, BC",
        "latitude": 50.117555,
        "longitude": -122.944736
    },
    {
        "name": "Owen Sound, ON",
        "latitude": 44.573404,
        "longitude": -80.912257
    },
    {
        "name": "Victoria, BC",
        "latitude": 48.456647,
        "longitude": -123.376329
    },
    {
        "name": "Terrebonne, QC",
        "latitude": 45.727922,
        "longitude": -73.511018
    },
    {
        "name": "Salisbury, NB",
        "latitude": 46.0510567,
        "longitude": -65.061238
    },
    {
        "name": "Medicine Hat, AB",
        "latitude": 49.996983,
        "longitude": -110.647548
    },
    {
        "name": "Vancouver - Pacific Centre, BC",
        "latitude": 49.281942,
        "longitude": -123.120042
    },
    {
        "name": "Penticton, BC",
        "latitude": 49.49616,
        "longitude": -119.61524
    },
    {
        "name": "Maple Creek, SK",
        "latitude": 49.908628,
        "longitude": -109.472065
    },
    {
        "name": "Kingston, ON",
        "latitude": 44.267307,
        "longitude": -76.503291
    },
    {
        "name": "Toronto - Bay St, ON",
        "latitude": 43.655596,
        "longitude": -79.382963
    },
    {
        "name": "Sainte Eulalie, QC",
        "latitude": 46.05864,
        "longitude": -72.312291
    },
    {
        "name": "Belleville, ON",
        "latitude": 44.187938,
        "longitude": -77.398757
    },
    {
        "name": "Kingston - Dalton Ave, ON",
        "latitude": 44.264946,
        "longitude": -76.501804
    },
    {
        "name": "Quispamsis, NB",
        "latitude": 45.418143,
        "longitude": -65.943975
    },
    {
        "name": "Prawda, MB",
        "latitude": 49.649401,
        "longitude": -95.792326
    },
    {
        "name": "Enfield, NS",
        "latitude": 44.9267179,
        "longitude": -63.5363646
    },
    {
        "name": "Baldwin, ON",
        "latitude": 46.286491,
        "longitude": -81.77511
    },
    {
        "name": "Sault Ste Marie, ON",
        "latitude": 46.5381429,
        "longitude": -84.3172732
    },
    {
        "name": "Whitewood, SK",
        "latitude": 50.336134,
        "longitude": -102.257448
    },
    {
        "name": "North Bay, ON",
        "latitude": 46.331699,
        "longitude": -79.472008
    },
    {
        "name": "Vancouver - Burrard St, BC",
        "latitude": 49.287756,
        "longitude": -123.115411
    },
    {
        "name": "Swift Current, SK",
        "latitude": 50.306966,
        "longitude": -107.779462
    },
    {
        "name": "Davidson, SK",
        "latitude": 51.273484,
        "longitude": -105.994108
    },
    {
        "name": "Surrey, BC",
        "latitude": 49.192318,
        "longitude": -122.806073
    },
    {
        "name": "Brandon, MB",
        "latitude": 49.867985,
        "longitude": -99.96043
    },
    {
        "name": "Dryden, ON",
        "latitude": 49.785663,
        "longitude": -92.81177
    },
    {
        "name": "Richmond, BC",
        "latitude": 49.170013,
        "longitude": -123.138776
    },
    {
        "name": "Kenora, ON",
        "latitude": 49.759555,
        "longitude": -94.473088
    },
    {
        "name": "White River, ON",
        "latitude": 48.592157,
        "longitude": -85.272639
    },
    {
        "name": "Wawa, ON",
        "latitude": 47.983344,
        "longitude": -84.780006
    },
    {
        "name": "Red Deer County, AB",
        "latitude": 52.216324,
        "longitude": -113.815141
    },
    {
        "name": "Burnaby, BC",
        "latitude": 49.267245,
        "longitude": -122.998104
    },
    {
        "name": "London, ON",
        "latitude": 42.917358,
        "longitude": -81.208505
    },
    {
        "name": "Thunder Bay, ON",
        "latitude": 48.381058,
        "longitude": -89.312285
    },
    {
        "name": "Kitchener (SC), ON",
        "latitude": 43.461295,
        "longitude": -80.472305
    },
    {
        "name": "Strathmore, AB",
        "latitude": 51.038439,
        "longitude": -113.378606
    },
    {
        "name": "Upsala, ON",
        "latitude": 49.041581,
        "longitude": -90.468786
    },
    {
        "name": "Chicoutimi, QC",
        "latitude": 48.401913,
        "longitude": -71.062556
    },
    {
        "name": "Princeton, BC",
        "latitude": 49.457882,
        "longitude": -120.506224
    },
    {
        "name": "Peterborough - Lansdowne St W, ON",
        "latitude": 44.28343,
        "longitude": -78.332347
    },
    {
        "name": "Aulac, NB",
        "latitude": 45.871351,
        "longitude": -64.280325
    },
    {
        "name": "Jasper, AB",
        "latitude": 52.880861,
        "longitude": -118.078182
    },
    {
        "name": "Nakusp, BC",
        "latitude": 50.2499,
        "longitude": -117.8102
    },
    {
        "name": "Cache Creek, BC",
        "latitude": 50.810979,
        "longitude": -121.324945
    },
    {
        "name": "Ottawa, ON",
        "latitude": 45.426472,
        "longitude": -75.690654
    },
    {
        "name": "Perth, ON",
        "latitude": 44.908247,
        "longitude": -76.265416
    },
    {
        "name": "Nepean - Robertson Rd, ON",
        "latitude": 45.32191,
        "longitude": -75.835509
    },
    {
        "name": "Kamloops, BC",
        "latitude": 50.655233,
        "longitude": -120.368302
    },
    {
        "name": "Huntsville, ON",
        "latitude": 45.333611,
        "longitude": -79.206703
    },
    {
        "name": "Kincardine, ON",
        "latitude": 44.172613,
        "longitude": -81.615962
    },
    {
        "name": "Bancroft, ON",
        "latitude": 45.084313,
        "longitude": -77.861116
    },
    {
        "name": "Vaudreuil, QC",
        "latitude": 45.38225,
        "longitude": -74.015455
    },
    {
        "name": "Collingwood, ON",
        "latitude": 44.50884,
        "longitude": -80.238819
    },
    {
        "name": "Langley, BC",
        "latitude": 49.16211,
        "longitude": -122.655657
    },
    {
        "name": "Golden - Hwy 1, BC",
        "latitude": 51.31105,
        "longitude": -116.969442
    },
    {
        "name": "Boisbriand, QC",
        "latitude": 45.626034,
        "longitude": -73.850525
    },
    {
        "name": "Canmore - Bow Valley Trail, AB",
        "latitude": 51.096694,
        "longitude": -115.35779
    },
    {
        "name": "West Kelowna, BC",
        "latitude": 49.879772,
        "longitude": -119.536163
    },
    {
        "name": "Cornwall, ON",
        "latitude": 45.023665,
        "longitude": -74.747845
    },
    {
        "name": "Woodstock, ON",
        "latitude": 43.111918,
        "longitude": -80.738804
    },
    {
        "name": "Toronto (SC), ON",
        "latitude": 43.740222,
        "longitude": -79.322389
    },
    {
        "name": "Drummondville, QC",
        "latitude": 45.899084,
        "longitude": -72.51942
    },
    {
        "name": "Orangeville, ON",
        "latitude": 43.930498,
        "longitude": -80.097787
    },
    {
        "name": "Rivière-du-Loup, QC",
        "latitude": 47.82017,
        "longitude": -69.558776
    },
    {
        "name": "Barrie, ON",
        "latitude": 44.341123,
        "longitude": -79.678975
    },
    {
        "name": "Port Hope, ON",
        "latitude": 43.97171,
        "longitude": -78.285431
    },
    {
        "name": "Prince George, BC",
        "latitude": 53.890728,
        "longitude": -122.767745
    },
    {
        "name": "Saskatoon, SK",
        "latitude": 52.088291,
        "longitude": -106.64237
    },
    {
        "name": "Vernon, BC",
        "latitude": 50.288151,
        "longitude": -119.260492
    },
    {
        "name": "Salmon Arm, BC",
        "latitude": 50.708022,
        "longitude": -119.25469
    },
    {
        "name": "Lloydminster, AB",
        "latitude": 53.276931,
        "longitude": -110.052501
    },
    {
        "name": "Cranbrook, BC",
        "latitude": 49.52468,
        "longitude": -115.750026
    },
    {
        "name": "Pickering, ON",
        "latitude": 43.846011,
        "longitude": -79.07285
    },
    {
        "name": "Markham - Markville, ON",
        "latitude": 43.867409,
        "longitude": -79.285695
    },
    {
        "name": "Burlington, ON",
        "latitude": 43.324467,
        "longitude": -79.821041
    },
    {
        "name": "Yamachiche, QC",
        "latitude": 46.262079,
        "longitude": -72.876801
    },
    {
        "name": "Fernie, BC",
        "latitude": 49.498344,
        "longitude": -115.080744
    },
    {
        "name": "Vegreville, AB",
        "latitude": 53.501784,
        "longitude": -112.079652
    },
    {
        "name": "Edson, AB",
        "latitude": 53.585796,
        "longitude": -116.421336
    },
    {
        "name": "Pointe Claire, QC",
        "latitude": 45.464212,
        "longitude": -73.828203
    },
    {
        "name": "Markham - Woodside, ON",
        "latitude": 43.850286,
        "longitude": -79.353573
    },
    {
        "name": "Chilliwack - Luckakuck Way, BC",
        "latitude": 49.142863,
        "longitude": -121.963766
    },
    {
        "name": "Coquitlam - Lougheed Hwy, BC",
        "latitude": 49.234262,
        "longitude": -122.86247
    },
    {
        "name": "North Battleford, SK",
        "latitude": 52.790462,
        "longitude": -108.302261
    },
    {
        "name": "Saint-Louis-de-Blandford, QC",
        "latitude": 46.21867,
        "longitude": -72.052671
    },
    {
        "name": "Invermere - Hwy 95, BC",
        "latitude": 50.512803,
        "longitude": -115.996366
    },
    {
        "name": "Gananoque, ON",
        "latitude": 44.3371,
        "longitude": -76.1502
    },
    {
        "name": "Hope - Klassen Rd, BC",
        "latitude": 49.363473,
        "longitude": -121.478714
    },
    {
        "name": "Gaspé, QC",
        "latitude": 48.824,
        "longitude": -64.473
    },
    {
        "name": "Saint-Liboire, QC",
        "latitude": 45.688194,
        "longitude": -72.805859
    },
    {
        "name": "Williams Lake, BC",
        "latitude": 52.112903,
        "longitude": -122.125409
    },
    {
        "name": "Quesnel, BC",
        "latitude": 52.965303,
        "longitude": -122.440265
    },
    {
        "name": "Berthierville, QC",
        "latitude": 46.0868,
        "longitude": -73.197
    },
    {
        "name": "Sherbrooke, QC",
        "latitude": 45.433782,
        "longitude": -71.86991
    },
    {
        "name": "Bracebridge, ON",
        "latitude": 45.048688,
        "longitude": -79.291012
    },
    {
        "name": "Madoc, ON",
        "latitude": 44.5128,
        "longitude": -77.481
    },
    {
        "name": "Merritt - Airport Rd, BC",
        "latitude": 50.1245,
        "longitude": -120.7485
    },
    {
        "name": "Toronto - Lakeshore Blvd W, ON",
        "latitude": 43.632596,
        "longitude": -79.411652
    },
    {
        "name": "Estevan, SK",
        "latitude": 49.144905,
        "longitude": -102.978509
    },
    {
        "name": "Matane, QC",
        "latitude": 48.852927,
        "longitude": -67.524772
    },
    {
        "name": "Charlottetown, PE",
        "latitude": 46.258554,
        "longitude": -63.180651
    },
    {
        "name": "Creston, BC",
        "latitude": 49.119664,
        "longitude": -116.523832
    },
    {
        "name": "Sechelt, BC",
        "latitude": 49.474594,
        "longitude": -123.746963
    },
    {
        "name": "Quebec City - Boulevard de l'Ormière, QC",
        "latitude": 46.817637,
        "longitude": -71.333466
    },
    {
        "name": "Revelstoke - Victoria Rd, BC",
        "latitude": 51.001766,
        "longitude": -118.198354
    },
    {
        "name": "Squamish - Commercial Way, BC",
        "latitude": 49.7229327,
        "longitude": -123.1536263
    },
    {
        "name": "La Tuque, QC",
        "latitude": 47.439562,
        "longitude": -72.783185
    },
    {
        "name": "Prince Albert, SK",
        "latitude": 53.199182,
        "longitude": -105.731354
    },
    {
        "name": "Kemptville, ON",
        "latitude": 45.0287,
        "longitude": -75.6334
    },
    {
        "name": "Cap-Rouge, QC",
        "latitude": 46.763436,
        "longitude": -71.371465
    },
    {
        "name": "Gatineau, QC",
        "latitude": 45.505495,
        "longitude": -75.611733
    },
    {
        "name": "Simcoe, ON",
        "latitude": 42.8479,
        "longitude": -80.2929
    },
    {
        "name": "Exeter, ON",
        "latitude": 43.3626527,
        "longitude": -81.4795456
    },
    {
        "name": "Sainte-Marie, QC",
        "latitude": 46.45,
        "longitude": -71.0308
    },
    {
        "name": "Mount Forest, ON",
        "latitude": 43.9882763,
        "longitude": -80.743745
    },
    {
        "name": "Surrey - 104 Ave, BC",
        "latitude": 49.19227,
        "longitude": -122.788412
    },
    {
        "name": "South Surrey, BC",
        "latitude": 49.056683,
        "longitude": -122.80165
    },
    {
        "name": "New Minas, NS",
        "latitude": 45.056877,
        "longitude": -64.469561
    },
    {
        "name": "Rimouski, QC",
        "latitude": 48.435477,
        "longitude": -68.523861
    },
    {
        "name": "Clearwater, BC",
        "latitude": 51.650418,
        "longitude": -120.041194
    },
    {
        "name": "Goderich, ON",
        "latitude": 43.7304,
        "longitude": -81.6867
    },
    {
        "name": "Cobourg, ON",
        "latitude": 43.969733,
        "longitude": -78.203776
    },
    {
        "name": "Edmonton (SC), AB",
        "latitude": 53.5605,
        "longitude": -113.6245
    },
    {
        "name": "North Vancouver - Lonsdale Ave, BC",
        "latitude": 49.32774,
        "longitude": -123.070885
    },
    {
        "name": "Kamloops - Notre Dame Dr, BC",
        "latitude": 50.663582,
        "longitude": -120.349653
    },
    {
        "name": "Castlegar, BC",
        "latitude": 49.294589,
        "longitude": -117.653468
    },
    {
        "name": "Innisfil (SC), ON",
        "latitude": 44.301184,
        "longitude": -79.681511
    },
    {
        "name": "Napanee, ON",
        "latitude": 44.262204,
        "longitude": -76.962914
    },
    {
        "name": "Saint-Jérôme, QC",
        "latitude": 45.79502,
        "longitude": -74.028702
    },
    {
        "name": "Morris, MB",
        "latitude": 49.3448,
        "longitude": -97.3644
    },
    {
        "name": "Montreal - Cote Vertu Blvd, QC",
        "latitude": 45.500503,
        "longitude": -73.707943
    },
    {
        "name": "Kamloops - Powwow Trail, BC",
        "latitude": 50.682098,
        "longitude": -120.297723
    },
    {
        "name": "Calgary - 130 Ave SE, AB",
        "latitude": 50.930449,
        "longitude": -113.966875
    },
    {
        "name": "Toronto - Don Mills, ON",
        "latitude": 43.73539,
        "longitude": -79.346035
    },
    {
        "name": "Merritt - De Wolf Way, BC",
        "latitude": 50.124357,
        "longitude": -120.761603
    },
    {
        "name": "Edmonton - Currents Dr NW, AB",
        "latitude": 53.436329,
        "longitude": -113.610406
    },
    {
        "name": "Maple Ridge - Dewdney Trunk Road, BC",
        "latitude": 49.220623,
        "longitude": -122.600845
    },
    {
        "name": "Wynyard, SK",
        "latitude": 51.764869,
        "longitude": -104.186569
    },
    {
        "name": "Richmond - Steveston Hwy, BC",
        "latitude": 49.132689,
        "longitude": -123.09498
    },
    {
        "name": "Brantford, ON",
        "latitude": 43.171894,
        "longitude": -80.244423
    },
    {
        "name": "Delta, BC",
        "latitude": 49.089869,
        "longitude": -123.078813
    },
    {
        "name": "Scarborough, ON",
        "latitude": 43.798804,
        "longitude": -79.147568
    },
    {
        "name": "Brampton, ON",
        "latitude": 43.741408,
        "longitude": -79.698877
    },
    {
        "name": "Montreal (SC), QC",
        "latitude": 45.496185,
        "longitude": -73.658793
    },
    {
        "name": "Milk River, AB",
        "latitude": 49.156932,
        "longitude": -112.092159
    },
    {
        "name": "Trenton, ON",
        "latitude": 44.130145,
        "longitude": -77.580229
    },
    {
        "name": "Paspébiac, QC",
        "latitude": 48.0275,
        "longitude": -65.259646
    },
    {
        "name": "Port Severn, ON",
        "latitude": 44.806186,
        "longitude": -79.734882
    }
]